{"type":"FeatureCollection","features":[{"type":"Feature","properties":{"name":"6:仙草寮玄光壇協玄壇","styleUrl":"#icon-1899-0288D1-nodesc","styleHash":"-2c8c0a8c","styleMapHash":{"normal":"#icon-1899-0288D1-nodesc-normal","highlight":"#icon-1899-0288D1-nodesc-highlight"}},"geometry":{"type":"Point","coordinates":[120.2003795,22.9798905,0]}},{"type":"Feature","properties":{"name":"3:北廠金勝宮協鎮壇","styleUrl":"#icon-1899-0288D1-nodesc","styleHash":"-2c8c0a8c","styleMapHash":{"normal":"#icon-1899-0288D1-nodesc-normal","highlight":"#icon-1899-0288D1-nodesc-highlight"}},"geometry":{"type":"Point","coordinates":[120.195837,23.0000367,0]}},{"type":"Feature","properties":{"name":"4:市仔頭福隆宮協誠壇","styleUrl":"#icon-1899-0288D1-nodesc","styleHash":"-2c8c0a8c","styleMapHash":{"normal":"#icon-1899-0288D1-nodesc-normal","highlight":"#icon-1899-0288D1-nodesc-highlight"}},"geometry":{"type":"Point","coordinates":[120.2124493,22.9997799,0]}},{"type":"Feature","properties":{"name":"5:玄明保安宮協合壇","styleUrl":"#icon-1899-0288D1-nodesc","styleHash":"-2c8c0a8c","styleMapHash":{"normal":"#icon-1899-0288D1-nodesc-normal","highlight":"#icon-1899-0288D1-nodesc-highlight"}},"geometry":{"type":"Point","coordinates":[120.199,22.9968861,0]}},{"type":"Feature","properties":{"name":"7:南廠水門宮協成壇","styleUrl":"#icon-1899-0288D1-nodesc","styleHash":"-2c8c0a8c","styleMapHash":{"normal":"#icon-1899-0288D1-nodesc-normal","highlight":"#icon-1899-0288D1-nodesc-highlight"}},"geometry":{"type":"Point","coordinates":[120.1846058,22.9843882,0]}},{"type":"Feature","properties":{"name":"8:南廠平天館協靈壇","styleUrl":"#icon-1899-0288D1-nodesc","styleHash":"-2c8c0a8c","styleMapHash":{"normal":"#icon-1899-0288D1-nodesc-normal","highlight":"#icon-1899-0288D1-nodesc-highlight"}},"geometry":{"type":"Point","coordinates":[120.1964432,22.9893193,0]}},{"type":"Feature","properties":{"name":"起點1：南廠保安宮協敬壇","styleUrl":"#icon-1899-0288D1-nodesc","styleHash":"-2c8c0a8c","styleMapHash":{"normal":"#icon-1899-0288D1-nodesc-normal","highlight":"#icon-1899-0288D1-nodesc-highlight"}},"geometry":{"type":"Point","coordinates":[120.1956244,22.9905093,0]}},{"type":"Feature","properties":{"name":"2.神佛壇協成壇","styleUrl":"#icon-1899-0288D1-nodesc","styleHash":"-2c8c0a8c","styleMapHash":{"normal":"#icon-1899-0288D1-nodesc-normal","highlight":"#icon-1899-0288D1-nodesc-highlight"}},"geometry":{"type":"Point","coordinates":[120.195131,22.998324,0]}},{"type":"Feature","properties":{"name":"線條 1","styleUrl":"#line-000000-1200-nodesc","styleHash":"c2c637f","styleMapHash":{"normal":"#line-000000-1200-nodesc-normal","highlight":"#line-000000-1200-nodesc-highlight"},"stroke":"#000000","stroke-opacity":1,"stroke-width":1.2},"geometry":{"type":"LineString","coordinates":[[120.1951933,22.9905423,0],[120.1971245,22.9968632,0],[120.1945496,22.9977784,0],[120.1948071,22.99845,0],[120.195086,22.9983315,0],[120.1953864,22.9985092,0],[120.1957512,22.9989438,0],[120.1952577,22.9991215,0],[120.1958156,22.9999314,0],[120.1954937,23.0001091,0],[120.1964808,23.0026966,0],[120.2000856,23.0038817,0],[120.2006865,23.0033682,0],[120.2019739,23.0028941,0],[120.2127671,22.9999314,0],[120.2124023,22.9984697,0],[120.2105141,22.9990623,0],[120.2108574,23.0004844,0],[120.2018023,23.0029139,0],[120.1999784,23.0035657,0],[120.1977038,22.9982524,0],[120.1990771,22.9977586,0],[120.1988626,22.9972253,0],[120.1998067,22.9968303,0],[120.1974463,22.9894427,0],[120.1975751,22.9813633,0],[120.200665,22.9813633,0],[120.2006221,22.9798224,0],[120.1975322,22.9797434,0],[120.191009,22.9753578,0],[120.1914811,22.9816596,0],[120.1842928,22.9823313,0],[120.1845503,22.9844845,0],[120.18543,22.9853142,0],[120.1917171,22.9848401,0],[120.1920176,22.988139,0],[120.1949143,22.9875661,0],[120.1964593,22.9874542,0],[120.1963091,22.9885999,0],[120.1967168,22.9901999,0],[120.1955831,22.990437,0]]}}],"_storage":{"displayOnLoad":true,"browsable":true,"name":"圖層 1","id":436391}}